City_ID,City,Lat,Lng,Max Temp,Humidity,Cloudiness,Wind Speed,Country,Date
0,bilibino,68.0546,166.4372,1.94,98,100,5.46,RU,1699847261
1,bubaque,11.2833,-15.8333,82.63,65,10,7.65,GW,1699847547
2,san antonio huista,15.65,-91.7667,70.52,86,30,4.43,GT,1699847548
3,khandyga,62.6667,135.6,-4.07,93,100,1.54,RU,1699847289
4,labytnangi,66.6572,66.4183,9.05,89,23,8.1,RU,1699847548
5,woodlake,37.4211,-77.6793,39.94,86,0,0.0,US,1699847549
6,kingaroy,-26.5333,151.8333,94.42,26,0,2.33,AU,1699847549
7,adamstown,-25.066,-130.1015,73.02,86,99,19.71,PN,1699847431
8,as sulayyil,20.4607,45.5779,64.65,47,9,7.14,SA,1699847550
9,waitangi,-43.9535,-176.5597,55.31,85,100,18.75,NZ,1699847550
10,port-aux-francais,-49.35,70.2167,39.99,79,100,6.49,TF,1699847550
11,paciran,-6.8767,112.3761,89.01,59,45,7.58,ID,1699847551
12,iskateley,67.6803,53.1512,11.01,94,44,5.01,RU,1699847551
13,tangalle,6.024,80.7911,82.56,90,100,4.18,LK,1699847314
14,luganville,-15.5333,167.1667,78.6,75,100,14.94,VU,1699847552
15,grytviken,-54.2811,-36.5092,36.3,91,100,4.12,GS,1699847552
16,avarua,-21.2078,-159.775,71.65,68,99,9.22,CK,1699847274
17,hermanus,-34.4187,19.2345,57.25,87,14,9.95,ZA,1699847552
18,college,64.8569,-147.8028,11.44,82,20,0.0,US,1699847553
19,edinburgh of the seven seas,-37.0676,-12.3116,57.83,81,54,24.52,SH,1699847553
20,margaret river,-33.95,115.0667,76.35,49,55,6.78,AU,1699847553
21,fale old settlement,-9.3852,-171.2468,84.94,68,57,3.36,TK,1699847553
22,galesong,-5.3166,119.3661,91.42,59,60,9.62,ID,1699847554
23,isafjordur,66.0755,-23.124,34.3,84,100,5.37,IS,1699847554
24,menongue,-14.6585,17.691,62.1,86,62,3.91,AO,1699847554
25,nsanje,-16.92,35.262,76.89,55,0,5.57,MW,1699847555
26,ust-tsilma,65.441,52.1498,22.6,95,97,3.0,RU,1699847555
27,puerto natales,-51.7236,-72.4875,40.89,86,100,4.94,CL,1699847555
28,sosnovo-ozerskoye,52.5249,111.5418,19.06,64,79,10.89,RU,1699847555
29,thompson,55.7435,-97.8558,28.56,100,100,2.3,CA,1699847556
30,boa vista,2.8197,-60.6733,85.98,58,0,11.5,BR,1699847330
31,taltal,-25.4,-70.4833,62.1,74,1,4.12,CL,1699847556
32,bredasdorp,-34.5322,20.0403,56.23,86,53,1.68,ZA,1699847557
33,remire-montjoly,4.9167,-52.2667,80.46,83,1,10.74,GF,1699847557
34,ilulissat,69.2167,-51.1,8.62,66,20,3.44,GL,1699847331
35,saint-philippe,-21.3585,55.7679,75.11,79,67,4.61,RE,1699847558
36,kodiak,57.79,-152.4072,29.71,80,40,3.44,US,1699847499
37,bandarbeyla,9.4942,50.8122,80.83,81,98,17.31,SO,1699847558
38,enewetak,11.3474,162.3373,81.73,81,100,15.5,MH,1699847558
39,blackmans bay,-43.0167,147.3167,69.93,36,2,5.26,AU,1699847559
40,invercargill,-46.4,168.35,53.02,89,100,8.01,NZ,1699847559
41,kenai,60.5544,-151.2583,23.14,94,0,3.44,US,1699847352
42,palmer,42.1584,-72.3287,31.51,74,0,3.44,US,1699847299
43,dudinka,69.4058,86.1778,27.68,96,100,11.99,RU,1699847280
44,visby,57.6409,18.296,39.42,93,100,16.11,SE,1699847560
45,coari,-4.085,-63.1414,77.31,83,28,2.39,BR,1699847560
46,nagqu,31.5,92.0,22.37,25,4,6.13,CN,1699847561
47,west island,-12.1568,96.8225,82.38,78,75,10.36,CC,1699847561
48,zeya,53.75,127.2667,25.48,42,22,8.05,RU,1699847561
49,papatowai,-46.5619,169.4708,51.42,96,100,5.5,NZ,1699847561
50,iqaluit,63.7506,-68.5145,-2.31,77,20,5.75,CA,1699847562
51,bataipora,-22.2953,-53.2711,83.16,38,40,5.7,BR,1699847562
52,kutum,14.2,24.6667,71.94,35,69,8.1,SD,1699847562
53,tolanaro,-25.0319,46.9987,68.07,88,0,0.0,MG,1699847563
54,raduzhny,62.0961,77.475,26.42,94,100,10.89,RU,1699847563
55,badger,64.8,-147.5333,11.35,85,20,0.0,US,1699847563
56,mariental,-24.6333,17.9667,70.39,27,3,8.7,NA,1699847564
57,qaqortoq,60.7167,-46.0333,16.0,91,26,2.35,GL,1699847514
58,andergrove,-21.0833,149.1833,86.65,53,0,11.97,AU,1699847488
59,happy valley-goose bay,53.3168,-60.3315,26.91,68,75,12.66,CA,1699847564
60,colonia,50.9333,6.95,47.43,89,100,5.75,DE,1699847468
61,ola,59.5833,151.2833,13.32,60,100,11.16,RU,1699847565
62,port elizabeth,-33.918,25.5701,59.29,79,0,11.5,ZA,1699847565
63,sechura,-5.5569,-80.8222,69.66,77,0,13.35,PE,1699847375
64,zakynthos,37.7914,20.8953,62.02,85,100,3.44,GR,1699847286
65,kapuskasing,49.4169,-82.4331,33.89,100,100,18.41,CA,1699847364
66,klyuchi,52.2667,79.1667,40.46,81,97,11.05,RU,1699847566
67,safotu,-13.4513,-172.4018,83.05,76,25,3.29,WS,1699847566
68,bethel,41.3712,-73.414,33.94,77,0,0.0,US,1699847567
69,pestravka,52.405,49.9583,44.02,75,100,21.32,RU,1699847567
70,nuuk,64.1835,-51.7216,21.81,79,11,12.66,GL,1699847395
71,luderitz,-26.6481,15.1594,63.3,58,0,16.62,NA,1699847568
72,afaahiti,-17.75,-149.2833,75.07,80,56,5.73,PF,1699847568
73,hawaiian paradise park,19.5933,-154.9731,74.71,92,100,3.0,US,1699847568
74,kone,-21.0595,164.8658,78.96,49,53,10.27,NC,1699847303
75,mamuju,-2.6748,118.8885,85.01,75,41,4.59,ID,1699847569
76,trincomalee,8.5711,81.2335,78.3,93,100,17.2,LK,1699847569
77,outjo,-20.1167,16.15,72.57,40,38,7.23,NA,1699847569
78,wailua homesteads,22.0669,-159.378,81.03,81,75,17.27,US,1699847570
79,jamestown,42.097,-79.2353,37.04,76,0,1.99,US,1699847491
80,port alfred,-33.5906,26.891,58.17,86,83,1.99,ZA,1699847570
81,vadso,70.0744,29.7487,23.16,80,20,3.44,NO,1699847571
82,crane,31.3974,-102.3501,57.2,80,100,8.86,US,1699847277
83,tralee,52.2704,-9.7026,48.97,88,86,33.46,IE,1699847571
84,san-pedro,4.7485,-6.6363,77.63,91,26,6.71,CI,1699847572
85,aksu,41.1231,80.2644,44.29,38,7,4.68,CN,1699847572
86,ghanzi,-21.5667,21.7833,77.14,21,88,8.28,BW,1699847572
87,san patricio,28.017,-97.5169,63.84,97,100,12.53,US,1699847573
88,demopolis,32.5176,-87.8364,58.95,94,100,0.0,US,1699847573
89,le vauclin,14.5452,-60.8388,80.65,78,20,13.8,MQ,1699847573
90,isangel,-19.55,169.2667,78.91,73,75,10.36,VU,1699847573
91,mount isa,-20.7333,139.5,100.17,20,6,13.8,AU,1699847574
92,forster,-32.1667,152.5167,72.28,68,74,12.68,AU,1699847574
93,sangueya,10.7,-14.3667,75.51,94,20,2.08,GN,1699847574
94,yellowknife,62.456,-114.3525,18.41,95,75,19.57,CA,1699847575
95,saipan,15.1355,145.701,88.5,74,20,19.57,MP,1699847575
96,norilsk,69.3535,88.2027,24.42,95,100,8.41,RU,1699847575
97,olonkinbyen,70.9221,-8.7187,26.24,67,100,5.75,SJ,1699847575
98,gizo,-8.103,156.8419,82.22,74,60,12.21,SB,1699847576
99,ancud,-41.8697,-73.8203,47.8,84,92,11.21,CL,1699847291
100,kasongo-lunda,-6.4667,16.8167,69.04,99,100,1.63,CD,1699847576
101,ribeira grande,38.5167,-28.7,62.78,86,100,5.99,PT,1699847576
102,bozoum,6.3193,16.3799,68.31,98,100,2.68,CF,1699847379
103,angel r. cabada,18.5833,-95.4333,75.27,87,99,16.15,MX,1699847577
104,stanley,54.868,-1.6985,44.53,95,100,5.75,GB,1699847577
105,sur,22.5667,59.5289,79.83,45,86,9.24,OM,1699847578
106,alto barinas,8.5931,-70.2261,76.41,82,90,4.18,VE,1699847578
107,mthatha,-31.5889,28.7844,55.96,71,75,3.44,ZA,1699847578
108,talnakh,69.4865,88.3972,24.21,97,100,6.42,RU,1699847579
109,petropavlovsk-kamchatsky,53.0452,158.6483,30.79,74,40,28.01,RU,1699847579
110,tommot,58.9564,126.2925,12.36,89,100,8.95,RU,1699847579
111,anadyr,64.75,177.4833,28.9,86,75,13.42,RU,1699847580
112,umba,66.6871,34.3429,21.79,93,66,9.71,RU,1699847580
113,cabo san lucas,22.8909,-109.9124,80.76,68,63,5.12,MX,1699847538
114,victorica,-36.2151,-65.4359,50.92,32,1,3.78,AR,1699847580
115,toliara,-23.35,43.6667,75.99,70,0,2.37,MG,1699847581
116,siem reap,13.5,104.0,89.51,56,28,4.88,KH,1699847581
117,quellon,-43.1167,-73.6167,45.95,85,100,11.59,CL,1699847581
118,geraldton,-28.7667,114.6,81.01,47,0,12.66,AU,1699847582
119,alesund,62.4723,6.1549,37.33,74,3,10.36,NO,1699847582
120,novomoskovs'k,48.6167,35.2,47.01,72,94,13.02,UA,1699847582
121,albany,42.6001,-73.9662,28.72,81,0,3.22,US,1699847554
122,el calafate,-50.3408,-72.2768,44.35,72,100,4.43,AR,1699847583
123,atafu village,-8.5421,-172.5159,85.06,68,44,4.74,TK,1699847583
124,aoulef,26.9667,1.0833,69.85,30,15,10.94,DZ,1699847584
125,hadibu,12.65,54.0333,80.58,82,55,13.02,YE,1699847584
126,chonchi,-42.6128,-73.8092,45.12,89,98,4.07,CL,1699847584
127,flying fish cove,-10.4217,105.6791,82.08,69,40,13.8,CX,1699847584
128,al jawf,29.5,38.75,70.41,43,99,1.36,SA,1699847585
129,lompoc,34.6391,-120.4579,60.58,82,0,5.75,US,1699847355
130,nova sintra,14.8667,-24.7167,73.83,67,53,6.78,CV,1699847585
131,utrik,11.2278,169.8474,82.18,83,99,20.47,MH,1699847586
132,inarajan village,13.2736,144.7484,90.57,83,24,18.03,GU,1699847586
133,kristiansund,63.1115,7.732,32.65,80,61,4.61,NO,1699847586
134,christchurch,-43.5333,172.6333,77.2,31,61,19.57,NZ,1699847301
135,bethanie,-26.4833,17.15,64.49,18,0,0.09,NA,1699847587
136,arraial do cabo,-22.9661,-42.0278,75.18,88,93,5.41,BR,1699847587
137,phayakkhaphum phisai,15.5163,103.1937,84.72,61,93,12.86,TH,1699847587
138,puerto ayora,-0.7393,-90.3518,76.55,92,77,8.01,EC,1699847588
139,manismata,-2.4667,111.0333,83.07,73,98,3.13,ID,1699847588
140,eastham,41.8301,-69.9739,40.95,67,100,0.0,US,1699847588
141,aykhal,66.0,111.5,9.18,94,99,9.31,RU,1699847523
142,jayapura,-2.5333,140.7,96.19,78,54,5.7,ID,1699847376
143,san antonio de pale,-1.4014,5.6325,79.18,83,47,9.62,GQ,1699847589
144,muntok,-2.0667,105.1833,87.93,62,27,2.84,ID,1699847589
145,bamboo flat,11.7,92.7167,80.69,83,75,4.61,IN,1699847590
146,kavaratti,10.5669,72.642,82.78,71,72,4.94,IN,1699847590
147,nemuro,43.3236,145.575,41.14,43,26,6.96,JP,1699847590
148,sisimiut,66.9395,-53.6735,13.41,85,53,7.16,GL,1699847591
149,lihue,21.9789,-159.3672,81.64,75,75,17.27,US,1699847591
150,egilsstadir,65.2653,-14.3948,31.91,93,20,8.05,IS,1699847591
151,lebu,-37.6167,-73.65,46.31,74,0,13.98,CL,1699847592
152,ushuaia,-54.8,-68.3,49.66,53,0,9.22,AR,1699847592
153,kruisfontein,-34.0033,24.7314,54.36,68,13,5.88,ZA,1699847592
154,hithadhoo,-0.6,73.0833,81.25,79,97,9.53,MV,1699847592
155,cannonvale,-20.2833,148.7,81.79,53,0,14.65,AU,1699847593
156,tiksi,71.6872,128.8694,1.22,90,78,13.33,RU,1699847324
157,mirny,62.5353,113.9611,10.24,85,100,1.99,RU,1699847594
158,st. john's,47.5649,-52.7093,29.79,81,100,11.5,CA,1699847328
159,polovinnoye,54.7914,65.9864,35.08,94,65,6.35,RU,1699847594
160,kingscliff,-28.2667,153.5667,80.76,73,100,14.97,AU,1699847594
161,inyonga,-6.7167,32.0667,68.07,85,100,3.83,TZ,1699847595
162,al kharijah,25.4514,30.5464,73.27,56,64,8.21,EG,1699847595
163,mount gambier,-37.8333,140.7667,64.72,44,33,10.51,AU,1699847595
164,laguna,38.421,-121.4238,60.78,63,0,4.61,US,1699847596
165,tura,25.5198,90.2201,78.64,56,0,1.34,IN,1699847596
166,new norfolk,-42.7826,147.0587,71.1,32,15,10.67,AU,1699847597
167,codrington,-38.2667,141.9667,61.74,53,5,15.57,AU,1699847597
168,angaur state,6.906,134.13,84.43,74,90,12.8,PW,1699847597
169,nyagan,62.1406,65.3936,16.5,98,49,2.19,RU,1699847597
170,isla mujeres,21.2311,-86.731,78.17,76,20,13.6,MX,1699847598
171,longyearbyen,78.2186,15.6401,21.04,73,75,19.57,SJ,1699847598
172,kiruna,67.8557,20.2251,-6.68,84,100,0.0,SE,1699847598
173,port mathurin,-19.6833,63.4167,77.31,78,0,4.5,MU,1699847599
174,salinopolis,-0.6136,-47.3561,79.57,80,13,9.53,BR,1699847599
175,susuman,62.7833,148.1667,-18.69,97,92,0.92,RU,1699847599
176,alo,7.4178,6.7371,75.76,91,100,2.75,NG,1699847600
177,labrador city,52.9463,-66.9114,17.51,93,100,6.91,CA,1699847410
178,wynyard,-41.0,145.7167,66.56,34,0,14.07,AU,1699847600
179,keflavik,64.0049,-22.5624,39.11,70,0,18.41,IS,1699847601
180,hamilton,39.1834,-84.5333,46.78,72,0,1.01,US,1699847397
181,diapaga,12.0708,1.7889,75.31,21,72,6.46,BF,1699847601
182,brookings,44.3114,-96.7984,43.18,58,0,5.75,US,1699847602
183,gao,16.6362,1.637,74.14,14,0,12.5,ML,1699847602
184,gadzhiyevo,69.2551,33.3362,13.6,96,96,9.46,RU,1699847602
185,luba,3.4568,8.5547,76.59,95,100,5.17,GQ,1699847603
186,jaru,-10.4389,-62.4664,75.15,89,20,1.19,BR,1699847603
187,lata,40.1629,-8.3327,62.08,96,67,3.96,PT,1699847603
188,comrat,46.3003,28.6572,41.41,75,6,1.19,MD,1699847604
189,petukhovo,55.0692,67.9019,36.59,94,90,8.52,RU,1699847604
190,punta arenas,-53.15,-70.9167,48.31,61,75,16.11,CL,1699847604
191,dumai,1.6833,101.45,84.13,81,74,1.34,ID,1699847605
192,grand falls-windsor,48.9332,-55.6649,22.24,91,12,5.03,CA,1699847605
193,bocaiuva,-17.1078,-43.815,73.11,33,6,3.83,BR,1699847605
194,salalah,17.0151,54.0924,77.09,53,0,5.75,OM,1699847606
195,vorgashor,67.5833,63.95,13.03,97,95,6.04,RU,1699847606
196,tremp,42.167,0.8949,50.67,88,48,3.44,ES,1699847606
197,pangody,65.85,74.4859,17.06,87,13,20.18,RU,1699847607
198,lagunas,-5.2269,-75.6753,77.86,86,72,2.66,PE,1699847607
199,taza,34.25,-3.75,62.1,47,100,2.89,MA,1699847607
200,vorkuta,67.5,64.0,14.22,96,93,5.84,RU,1699847608
201,huarmey,-10.0681,-78.1522,67.6,83,66,10.0,PE,1699847609
202,sao vicente,-23.9631,-46.3919,93.38,26,29,10.58,BR,1699847609
203,chilaw,7.5758,79.7953,80.62,80,100,12.35,LK,1699847609
204,komsomolets,53.7453,62.0708,36.73,91,84,9.06,KZ,1699847610
205,ponnani,10.767,75.9252,81.72,66,99,8.95,IN,1699847610
206,kentville,45.0835,-64.4988,34.72,85,30,4.61,CA,1699847611
207,maloye ganyushkino,46.6,49.2667,47.93,74,98,9.28,KZ,1699847611
208,dame-marie,18.5667,-74.4167,80.17,77,56,1.21,HT,1699847611
209,medina,24.4686,39.6142,75.63,25,20,6.91,SA,1699847612
210,necochea,-38.5473,-58.7368,46.09,63,0,6.17,AR,1699847612
211,whitehorse,60.7161,-135.0538,25.57,80,100,8.05,CA,1699847613
212,nanuque,-17.8392,-40.3539,72.43,76,2,3.09,BR,1699847613
213,faya-largeau,17.9257,19.1043,75.2,22,7,18.84,TD,1699847613
214,calama,-22.4667,-68.9333,55.89,22,0,8.05,CL,1699847614
215,labuan,5.2767,115.2417,88.16,66,20,2.3,MY,1699847615
216,namsos,64.4662,11.4957,30.25,74,3,18.41,NO,1699847615
217,yashan,22.1975,109.9419,65.43,68,22,15.1,CN,1699847616
218,lupane,-18.9315,27.807,69.22,30,5,7.11,ZW,1699847616
219,carolina beach,34.0352,-77.8936,52.07,89,95,14.97,US,1699847457
220,suntar,62.1444,117.6319,16.03,88,100,5.44,RU,1699847617
221,aripuana,-9.1667,-60.6333,78.51,75,42,1.36,BR,1699847617
222,solhan,38.9634,41.0293,46.44,77,74,3.13,TR,1699847617
223,kokopo,-4.352,152.2633,82.76,69,100,11.59,PG,1699847618
224,male,4.1748,73.5089,84.15,84,75,4.61,MV,1699847618
225,acajutla,13.5928,-89.8275,80.15,75,69,6.02,SV,1699847619
226,ephrata,40.1798,-76.1788,34.83,86,2,1.77,US,1699847528
227,filey,54.21,-0.2892,46.08,93,100,8.99,GB,1699847619
228,arenapolis,-14.4503,-56.8461,84.15,52,56,5.23,BR,1699847620
229,portland,45.5234,-122.6762,56.28,88,100,17.27,US,1699847447
230,howrah,22.5892,88.3103,78.8,69,15,9.22,IN,1699847621
231,la gi,10.6667,107.7833,84.47,69,94,12.71,VN,1699847621
232,masvingo,-20.0637,30.8277,62.82,75,52,9.04,ZW,1699847621
233,san mariano,7.5,126.0,85.48,70,32,5.82,PH,1699847622
234,vobarno,45.6401,10.5035,47.8,69,48,5.08,IT,1699847622
235,parry sound,45.3501,-80.033,40.91,64,100,10.51,CA,1699847623
236,east london,-33.0153,27.9116,58.14,77,0,8.05,ZA,1699847386
237,amga,60.8953,131.9608,7.84,91,100,6.71,RU,1699847623
238,colchani,-20.3,-66.9333,51.51,34,59,7.54,BO,1699847624
239,desaguadero,-16.5656,-69.0417,44.74,77,100,13.8,PE,1699847624
240,paka,4.6374,103.4368,89.53,70,20,2.3,MY,1699847625
241,weno,7.4515,151.8468,83.5,70,45,10.38,FM,1699847625
242,ribeira brava,32.65,-17.0667,70.43,80,32,2.24,PT,1699847350
243,yulinshi,38.2906,109.7494,36.46,25,100,8.75,CN,1699847626
244,nyurba,63.2842,118.3319,8.19,90,100,3.98,RU,1699847626
245,mugia,43.1041,-9.2179,66.16,95,96,29.12,ES,1699847627
246,namdrik,5.5994,168.1028,83.14,81,96,10.33,MH,1699847627
247,tazovsky,67.4667,78.7,19.74,94,85,16.2,RU,1699847627
248,caleta de carquin,-11.0925,-77.6267,67.05,85,16,9.22,PE,1699847628
249,tucuma,-0.1833,-50.05,78.49,83,0,7.9,BR,1699847628
250,kayangel,8.0823,134.7173,84.52,75,100,16.33,PW,1699847629
251,belmonte,-15.8631,-38.8828,75.18,85,14,10.36,BR,1699847629
252,enriquillo,17.9,-71.2333,78.91,88,12,14.03,DO,1699847629
253,punta del este,-34.9667,-54.95,57.96,72,75,11.5,UY,1699847630
254,opuwo,-18.0607,13.84,72.82,36,64,3.78,NA,1699847630
255,udachny,66.4167,112.4,10.45,84,100,8.14,RU,1699847351
256,shache,38.4167,77.2406,48.06,22,21,1.23,CN,1699847631
257,alice springs,-23.7,133.8833,96.35,21,86,10.36,AU,1699847631
258,rio grande,-32.035,-52.0986,61.95,90,100,7.58,BR,1699847632
259,aasiaat,68.7098,-52.8699,5.99,87,18,4.34,GL,1699847632
260,carnarvon,-24.8667,113.6333,74.77,62,28,11.88,AU,1699847632
261,lokot',52.565,34.5776,40.84,85,100,17.45,RU,1699847633
262,georgetown,5.4112,100.3354,90.95,72,20,6.91,MY,1699847488
263,cooper's town,26.8667,-77.5167,77.4,71,18,7.99,BS,1699847633
264,hasaki,35.7333,140.8333,57.6,61,99,17.67,JP,1699847634
265,inhambane,-23.865,35.3833,75.18,94,75,3.44,MZ,1699847634
266,yung shue wan,22.2333,114.1167,75.61,66,57,1.99,HK,1699847635
267,akureyri,65.6835,-18.0878,33.73,69,75,2.3,IS,1699847635
268,urumqi,43.801,87.6005,36.55,75,40,6.71,CN,1699847635
269,sanming,26.2486,117.6186,59.5,83,100,4.61,CN,1699847636
270,yanykurgan,43.915,67.2481,42.89,57,4,5.35,KZ,1699847636
271,pengcheng,36.4311,114.17,47.21,43,100,8.81,CN,1699847637
272,pisco,-13.7,-76.2167,67.01,88,15,6.91,PE,1699847637
273,carrollton,32.9537,-96.8903,58.41,74,100,0.0,US,1699847602
274,villazon,-22.0866,-65.5942,56.53,63,75,11.59,BO,1699847638
275,mejit,10.2753,170.8646,82.53,82,82,19.15,MH,1699847638
276,asau,46.4333,26.4,34.72,88,32,5.99,RO,1699847639
277,pundong,-7.9522,110.3486,85.82,67,56,12.57,ID,1699847639
278,isla del bosque,22.7333,-105.85,73.67,85,82,6.62,MX,1699847639
279,ambalavao,-21.8333,46.9333,71.29,56,0,2.66,MG,1699847640
280,nar'yan-mar,67.6713,53.087,11.1,94,42,5.01,RU,1699847640
281,yeniseysk,58.4497,92.1703,30.94,98,100,5.01,RU,1699847363
282,queimadas,-10.9783,-39.6264,71.6,72,83,6.2,BR,1699847640
283,aureilhan,43.2434,0.0958,51.8,93,0,6.91,FR,1699847641
284,rongelap,11.1635,166.8941,82.35,84,100,19.86,MH,1699847641
285,sebdou,34.637,-1.3314,45.7,36,8,2.53,DZ,1699847641
286,tocopilla,-22.092,-70.1979,65.3,75,22,6.91,CL,1699847642
287,reitz,-27.8014,28.4273,53.56,83,20,10.89,ZA,1699847642
288,ust-nera,64.5667,143.2,-11.27,99,99,3.11,RU,1699847642
289,manay,7.215,126.5397,86.97,69,60,10.0,PH,1699847643
290,atamyrat,37.8357,65.2106,57.34,29,3,4.16,TM,1699847643
291,touros,-5.1989,-35.4608,79.59,72,43,12.97,BR,1699847643
292,parbhani,19.2667,76.7833,77.97,43,77,5.66,IN,1699847644
293,wuhai,39.6647,106.8122,38.5,16,55,6.58,CN,1699847644
294,dunedin,-45.8742,170.5036,61.32,72,100,5.03,NZ,1699847492
295,alofi,-19.0595,-169.9187,75.09,88,100,12.66,NU,1699847644
296,yarovoye,52.9273,78.58,39.22,90,99,10.69,RU,1699847645
297,broken hill,-31.95,141.4333,85.06,15,30,11.03,AU,1699847407
298,nushki,29.5542,66.0215,63.93,26,62,0.81,PK,1699847645
299,dryden,49.7833,-92.7503,37.69,87,100,18.41,CA,1699847646
300,wiradesa,-6.8922,109.619,87.75,64,32,6.62,ID,1699847646
301,sabinopolis,-18.6661,-43.0839,69.55,51,56,1.07,BR,1699847646
302,thief river falls,48.1191,-96.1812,40.93,70,0,14.97,US,1699847646
303,cidreira,-30.1811,-50.2056,69.22,98,100,15.95,BR,1699847647
304,shimoga,13.9167,75.5667,74.89,60,88,10.51,IN,1699847647
305,butte,39.6499,-121.5677,57.22,57,0,0.0,US,1699847647
306,cidade velha,14.9167,-23.6167,75.67,83,0,10.36,CV,1699847648
307,nagai,38.1036,140.035,43.41,77,70,13.58,JP,1699847648
308,margate,51.3813,1.3862,51.31,95,100,4.0,GB,1699847644
309,sarupathar,26.1984,93.8094,76.48,66,3,4.05,IN,1699847648
310,port douglas,-16.4833,145.4667,79.34,61,44,11.34,AU,1699847649
311,rocky mountain house,52.3668,-114.9188,30.31,59,100,5.75,CA,1699847649
312,ben gardane,33.1378,11.2197,67.57,56,0,7.16,TN,1699847649
313,darhan,49.4867,105.9228,19.38,63,98,4.47,MN,1699847650
314,hauterive,46.0901,3.4459,61.56,89,100,6.85,FR,1699847650
315,olney,39.1532,-77.0669,40.15,84,0,0.0,US,1699847299
316,acarau,-2.8856,-40.12,78.28,78,0,13.29,BR,1699847650
317,fort st. john,56.2499,-120.8529,28.29,74,75,6.91,CA,1699847651
318,quang ngai,15.1167,108.8,79.36,89,100,8.95,VN,1699847651
319,holualoa,19.6228,-155.9522,76.84,85,75,9.22,US,1699847652
320,machico,32.7,-16.7667,70.43,81,75,6.91,PT,1699847652
321,mooirivier,-29.2082,29.9946,51.4,91,100,2.39,ZA,1699847652
322,sao miguel do araguaia,-13.275,-50.1628,81.39,39,64,2.77,BR,1699847652
323,la passe,45.5549,-0.8967,59.99,81,92,13.94,FR,1699847653
324,zarghun shahr,32.8473,68.4457,43.72,41,0,1.12,AF,1699847653
325,sangmelima,2.9333,11.9833,69.08,100,100,2.48,CM,1699847653
326,puerto deseado,-47.7503,-65.8938,48.2,60,0,15.59,AR,1699847494
327,cody,44.5263,-109.0565,43.0,48,0,3.44,US,1699847654
328,betio village,1.358,172.9211,86.04,75,71,11.23,KI,1699847654
329,dax,43.75,-1.1667,64.54,99,51,4.61,FR,1699847655
330,nikol'sk,53.7189,46.0712,45.57,79,82,20.07,RU,1699847559
331,ponta delgada,37.7333,-25.6667,68.72,94,75,9.22,PT,1699847655
332,plettenberg bay,-34.0527,23.3716,56.5,71,3,4.72,ZA,1699847451
333,mammoth lakes,37.6485,-118.9721,25.52,40,0,0.0,US,1699847656
334,slave lake,55.2834,-114.769,26.58,68,0,4.61,CA,1699847657
335,erenhot,43.6475,111.9767,27.91,34,97,5.97,CN,1699847657
336,yuzhno-kurilsk,44.0306,145.8556,36.37,80,81,4.25,RU,1699847657
337,barmer,25.75,71.3833,74.37,27,85,7.09,IN,1699847659
338,paso del toro,19.0333,-96.1167,77.22,75,75,9.22,MX,1699847659
339,tver,56.8619,35.8931,39.29,96,100,5.01,RU,1699847659
340,lae,-6.7221,146.9847,90.27,71,66,9.01,PG,1699847659
341,aldinga beach,-35.2793,138.4604,74.41,46,91,11.1,AU,1699847660
342,axim,4.8699,-2.2405,78.28,89,18,5.44,GH,1699847660
343,tarko-sale,64.9225,77.785,13.26,87,14,15.52,RU,1699847660
344,akim swedru,5.8938,-1.0164,73.69,99,58,2.51,GH,1699847661
345,kargil,34.5667,76.1,32.86,33,15,1.48,IN,1699847661
346,lamu,-2.2717,40.902,77.22,85,91,4.18,KE,1699847662
347,embi,48.8264,58.1442,37.2,86,40,8.19,KZ,1699847662
348,muynoq,43.7683,59.0214,41.25,71,0,11.56,UZ,1699847662
349,peace river,56.2501,-117.286,28.71,93,75,6.91,CA,1699847663
350,bafra,41.5678,35.9069,64.71,91,100,10.8,TR,1699847663
351,pacific grove,36.6177,-121.9166,58.17,88,40,0.0,US,1699847663
352,eyl,7.9803,49.8164,81.7,74,98,17.0,SO,1699847664
353,alaghsas,17.0187,8.0168,72.5,17,0,9.42,NE,1699847664
354,arkhangel'sk,64.5401,40.5433,20.12,90,68,11.03,RU,1699847664
355,greenville,35.6127,-77.3663,51.96,89,75,5.75,US,1699847614
356,grimstad,58.3405,8.5934,35.51,85,100,16.11,NO,1699847665
357,port lincoln,-34.7333,135.8667,63.28,62,100,13.76,AU,1699847665
358,mili,6.0815,171.735,83.7,80,100,18.68,MH,1699847665
359,porto novo,6.4965,2.6036,82.22,90,23,3.56,BJ,1699847666
360,qamdo,31.1667,97.2333,29.57,32,0,3.04,CN,1699847666
361,vilyuchinsk,52.9306,158.4028,32.27,72,43,4.23,RU,1699847666
362,arteche,12.2645,125.4048,84.7,76,99,9.13,PH,1699847667
363,turkmenbasy,40.0222,52.9552,63.37,42,0,18.41,TM,1699847664
364,smirnovo,54.5125,69.4222,35.62,94,100,7.0,KZ,1699847667
365,selfoss,63.9331,-20.9971,36.05,61,100,13.73,IS,1699847668
366,carauari,-4.8828,-66.8958,78.33,79,48,2.06,BR,1699847668
367,idri,27.5,13.2667,63.54,61,0,6.53,LY,1699847668
368,port isabel,26.0734,-97.2086,64.02,93,100,18.99,US,1699847669
369,la sierpe,2.8518,-77.6155,76.35,95,98,3.78,CO,1699847669
370,pontes e lacerda,-15.2261,-59.3353,80.51,61,78,2.28,BR,1699847669
371,les cayes,18.2,-73.75,79.75,84,35,4.14,HT,1699847670
372,kailua-kona,19.6406,-155.9956,80.56,86,75,9.22,US,1699847663
373,diamantino,-14.4086,-56.4461,81.59,56,54,4.99,BR,1699847670
374,itaituba,-4.2761,-55.9836,80.01,62,18,1.48,BR,1699847671
375,marica,-22.9194,-42.8186,84.11,85,93,4.54,BR,1699847561
376,al ghayzah,16.2079,52.176,78.91,70,1,2.06,YE,1699847671
377,smithers,54.7804,-127.1743,30.52,100,100,2.3,CA,1699847671
378,blagoveshchensk,50.2667,127.5333,32.61,40,0,17.9,RU,1699847672
379,kinablangan,7.6947,126.5503,85.66,72,33,10.38,PH,1699847672
380,whangarei,-35.7317,174.3239,68.92,44,3,0.69,NZ,1699847672
381,horta,38.5333,-28.6333,62.02,85,100,5.99,PT,1699847673
382,horki,54.2861,30.9842,39.15,90,100,17.63,BY,1699847673
383,rimus,16.8764,120.3966,86.47,61,53,6.04,PH,1699847673
384,al mutayrifi,25.4788,49.5576,70.14,63,57,4.05,SA,1699847674
385,tokar,18.4254,37.729,82.98,73,18,9.1,SD,1699847674
386,laishevo,55.4046,49.5504,37.62,90,100,23.26,RU,1699847674
387,am timan,11.0297,20.2827,77.52,69,100,5.37,TD,1699847675
388,kaspiysk,42.8816,47.6392,51.98,81,59,13.42,RU,1699847675
389,xinyuan,37.3,99.0,33.37,14,5,10.67,CN,1699847676
390,penzance,50.1186,-5.5371,57.88,92,100,35.39,GB,1699847677
391,fort stockton,30.894,-102.8793,55.45,95,100,3.44,US,1699847677
392,naze,28.3667,129.4833,65.32,64,96,19.6,JP,1699847677
393,druzhkivka,48.6301,37.5526,46.87,76,90,14.56,UA,1699847677
394,dauphin,51.1494,-100.0502,37.54,75,0,18.41,CA,1699847678
395,usinsk,65.9939,57.5281,5.07,100,96,5.01,RU,1699847582
396,rockport,28.0206,-97.0544,64.0,93,100,12.66,US,1699847678
397,kirkland lake,48.1446,-80.0377,34.09,69,97,5.75,CA,1699847679
398,hammerfest,70.6634,23.6821,18.05,67,14,1.14,NO,1699847679
399,mapimi,25.8167,-103.85,53.37,95,72,4.65,MX,1699847680
400,okhotsk,59.3833,143.3,8.35,75,1,19.51,RU,1699847638
401,naberera,-4.2,36.9333,64.15,88,90,4.76,TZ,1699847680
402,kurumkan,54.3,110.3,16.12,84,99,1.01,RU,1699847680
403,tongren,27.7172,109.1853,46.63,75,100,3.62,CN,1699847681
404,san luis,-33.295,-66.3356,49.01,33,0,14.79,AR,1699847570
405,island harbour,50.724,-1.2758,58.93,94,100,11.01,GB,1699847681
406,burnie,-41.0667,145.9167,69.46,38,0,15.35,AU,1699847681
407,doullens,50.1572,2.3402,51.82,98,100,11.81,FR,1699847682
408,guane,22.2025,-84.0875,74.17,87,99,7.49,CU,1699847682
409,ta`u,-14.2336,-169.5144,82.53,77,26,7.14,AS,1699847682
410,guerrero negro,27.9769,-114.0611,66.83,64,0,9.89,MX,1699847683
411,la'ie,21.6477,-157.9253,82.36,81,45,8.99,US,1699847683
412,kharp,66.8014,65.8081,8.22,92,58,7.99,RU,1699847683
413,haiku-pauwela,20.9219,-156.3051,77.02,74,40,21.85,US,1699847684
414,nizhneangarsk,55.7833,109.55,19.99,76,95,1.01,RU,1699847684
415,chernyshevskiy,63.0128,112.4714,7.97,95,100,5.08,RU,1699847684
416,puerto baquerizo moreno,-0.9,-89.6,74.59,83,86,13.06,EC,1699847684
417,trapani,37.8333,12.6667,68.09,73,0,10.36,IT,1699847685
418,sitka,57.0531,-135.33,35.49,87,0,0.0,US,1699847685
419,brantford,43.1334,-80.2664,33.93,82,39,5.44,CA,1699847685
420,lloydminster,53.2835,-110.0016,26.82,63,20,6.91,CA,1699847453
421,kurayoshi,35.4333,133.8167,51.71,74,100,12.55,JP,1699847686
422,bentiu,9.2333,29.8333,78.01,64,19,1.68,SS,1699847686
423,palmas,-10.2128,-48.3603,80.47,74,0,3.44,BR,1699847686
424,kill devil hills,36.0307,-75.676,54.99,72,75,16.11,US,1699847687
425,saint-joseph,-21.3667,55.6167,74.1,77,36,4.14,RE,1699847687
426,al wajh,26.2455,36.4525,76.95,61,0,4.61,SA,1699847687
427,chinde,26.8418,88.0763,67.08,42,0,3.94,NP,1699847688
428,antsiranana,-12.2787,49.2917,77.76,73,20,9.22,MG,1699847688
429,develi,38.3906,35.4922,34.95,66,89,4.88,TR,1699847688
430,phan rang-thap cham,11.5667,108.9833,78.31,90,100,13.58,VN,1699847688
431,villa de arista,22.65,-100.8333,58.37,91,100,5.12,MX,1699847689
432,troitskoye,52.9821,84.6757,36.18,91,36,10.6,RU,1699847689
433,ouadda,8.0777,22.4007,69.19,95,98,1.61,CF,1699847689
434,clemencia,10.5665,-75.325,79.97,89,99,7.81,CO,1699847690
435,soio,-6.1349,12.3689,77.99,88,92,5.68,AO,1699847690
436,dalnerechensk,45.9339,133.7225,24.37,79,9,11.54,RU,1699847690
437,palu,-0.8917,119.8707,87.75,71,100,3.11,ID,1699847691
438,danilovka,50.3557,44.1168,47.7,77,76,16.62,RU,1699847691
439,takoradi,4.8845,-1.7554,78.53,88,30,6.11,GH,1699847691
440,youhao,47.8667,128.8333,27.64,69,9,11.59,CN,1699847691
441,kerikeri,-35.2268,173.9474,66.74,53,31,8.59,NZ,1699847438
442,fiambala,-27.6871,-67.6149,64.13,61,0,3.13,AR,1699847692
443,turinsk,58.0458,63.696,32.31,86,100,4.81,RU,1699847693
444,guajara mirim,-10.7828,-65.3394,75.54,91,55,2.82,BR,1699847693
445,santiago de cao,-7.9589,-79.2392,66.33,82,75,9.22,PE,1699847693
446,tirlyanskiy,54.2109,58.5806,32.2,82,100,4.16,RU,1699847693
447,zabol,32.25,67.25,49.14,39,0,4.63,AF,1699847694
448,oranjemund,-28.55,16.4333,56.41,86,0,10.58,NA,1699847694
449,tromso,69.6496,18.957,23.02,74,16,4.61,NO,1699847694
450,bin yauri,10.7823,4.8114,73.71,28,14,5.32,NG,1699847695
451,arno,60.1167,18.6333,37.78,97,100,11.12,SE,1699847695
452,mazamari,-11.3258,-74.5308,72.66,89,64,1.88,PE,1699847695
453,constantia,44.1833,28.65,39.88,51,100,3.76,RO,1699847695
454,nizhniy odes,63.6445,54.856,21.07,92,99,6.49,RU,1699847696
455,ambatofinandrahana,-20.55,46.8,67.15,60,8,1.9,MG,1699847696
456,northwest harborcreek,42.1494,-79.9946,37.92,78,0,6.91,US,1699847696
457,san pedro pochutla,15.7333,-96.4667,74.95,90,11,4.16,MX,1699847697
458,northam,51.0333,-4.2167,58.24,98,100,28.32,GB,1699847697
459,saldanha,-33.0117,17.9442,55.45,87,1,13.27,ZA,1699847697
460,aswan,24.0934,32.907,76.3,60,0,5.75,EG,1699847697
461,jatiroto,-7.8833,111.1167,90.21,51,35,3.09,ID,1699847698
462,gazojak,41.1875,61.4036,45.37,42,1,11.41,TM,1699847698
463,manjeshvar,12.7,74.8833,83.59,68,98,8.88,IN,1699847698
464,simanggang,1.2472,111.4528,85.98,74,40,3.44,MY,1699847699
465,yaren,-0.5472,166.916,82.72,80,94,25.43,NR,1699847699
466,bengkulu,-3.8004,102.2655,83.01,75,58,9.26,ID,1699847657
467,vila franca do campo,37.7167,-25.4333,68.41,99,84,13.06,PT,1699847658
468,martinsburg,39.4562,-77.9639,40.08,90,0,0.0,US,1699847583
469,snodland,51.3297,0.4431,52.54,68,100,1.99,GB,1699847700
470,vernon,50.2581,-119.2691,44.76,71,100,2.3,CA,1699847462
471,celestun,20.8667,-90.4,79.07,79,52,12.91,MX,1699847701
472,miri,4.4148,114.0089,86.14,74,40,3.44,MY,1699847701
473,madimba,-10.4,40.3333,78.6,86,94,1.43,TZ,1699847701
474,callao,-12.0667,-77.15,69.71,77,100,13.8,PE,1699847623
475,minas de marcona,-15.2119,-75.1103,57.9,91,90,13.42,PE,1699847703
476,hopelchen,19.7667,-89.85,74.84,88,6,3.4,MX,1699847703
477,crucecita,-28.95,-58.9833,71.49,97,100,8.55,AR,1699847703
478,berezovo,63.9381,65.0419,12.85,85,5,6.04,RU,1699847704
479,inderbor,48.55,51.7833,42.66,62,100,17.85,KZ,1699847704
480,likiep,9.8251,169.3107,82.47,83,76,18.9,MH,1699847705
481,polyarnyy,69.1989,33.4478,14.52,95,93,9.8,RU,1699847701
482,amuntai,-2.4177,115.2494,84.34,77,98,2.04,ID,1699847706
483,choma,-16.8065,26.9531,67.93,40,67,4.38,ZM,1699847706
484,santa elena de uairen,4.6167,-61.1333,68.23,84,58,4.7,VE,1699847706
485,kalat,29.0225,66.5916,52.11,31,99,4.05,PK,1699847707
486,lodja,-3.4833,23.4333,68.16,99,100,0.96,CD,1699847707
487,mahanoro,-19.9,48.8,74.59,76,61,4.41,MG,1699847707
488,sogndal,61.2283,7.1003,32.38,93,100,3.44,NO,1699847708
489,guigang,23.0964,109.6092,58.05,71,76,11.14,CN,1699847708
490,atherton,53.5237,-2.4935,49.28,97,100,11.65,GB,1699847708
491,inirida,3.8653,-67.9239,75.42,95,94,3.22,CO,1699847614
492,saqqez,36.2499,46.2735,49.48,50,96,3.58,IR,1699847709
493,mar del plata,-38.0023,-57.5575,51.87,75,0,4.61,AR,1699847463
494,tashtyp,52.7939,89.8983,34.81,94,100,1.25,RU,1699847710
495,ghat,24.9647,10.1728,62.96,34,0,5.97,LY,1699847710
496,lorengau,-2.0226,147.2712,84.34,67,62,3.33,PG,1699847710
497,burang,30.25,81.1667,35.01,32,0,4.68,CN,1699847711
498,bintulu,3.1667,113.0333,84.61,79,40,6.91,MY,1699847711
499,sabang,5.8933,95.3214,82.58,76,88,13.29,ID,1699847711
500,tra mhor,52.1624,-7.1524,56.17,95,100,14.0,IE,1699847712
501,miranda,3.2499,-76.2281,70.38,91,71,5.06,CO,1699847712
502,sharan,54.8167,54.0,38.95,72,100,19.08,RU,1699847712
503,impfondo,1.6381,18.0667,71.24,99,100,1.07,CG,1699847713
504,puerto palomas,31.7667,-107.6167,56.93,52,0,8.88,MX,1699847713
505,kirakira,-10.4544,161.9205,80.78,81,100,6.69,SB,1699847713
506,mount pearl,47.5166,-52.7813,28.96,81,100,11.5,CA,1699847575
507,bhadrakh,21.0528,86.52,82.22,48,49,7.34,IN,1699847714
508,coracao de jesus,-16.6853,-44.365,73.15,37,33,2.04,BR,1699847714
509,blenheim,-41.516,173.9528,71.64,42,85,16.62,NZ,1699847715
510,lycksele,64.5954,18.6735,21.07,93,100,9.22,SE,1699847715
511,norton,-17.8833,30.7,67.87,61,31,7.99,ZW,1699847716
512,tazacorte,28.629,-17.9293,74.16,37,20,8.99,ES,1699847656
513,aurillac,44.9167,2.45,49.89,95,100,2.3,FR,1699847716
514,san sebastian de la gomera,28.0916,-17.1133,77.16,33,0,1.14,ES,1699847717
515,heyuan,23.7333,114.6833,64.74,65,92,8.99,CN,1699847717
516,tirhanimine,35.2362,-3.9545,57.09,63,0,6.91,MA,1699847717
517,dire,12.2833,-10.9667,72.25,38,2,2.59,ML,1699847718
518,st ives,50.2086,-5.4875,57.52,93,100,33.33,GB,1699847718
519,eliot,43.1531,-70.8001,30.94,81,0,5.75,US,1699847718
520,newman,37.3138,-121.0208,62.94,39,96,5.41,US,1699847504
521,kapa'a,22.0752,-159.319,80.58,80,75,17.27,US,1699847683
522,nefta,33.8731,7.8777,64.42,41,18,6.33,TN,1699847719
523,nakamura,32.9833,132.9333,55.99,50,14,11.61,JP,1699847719
524,ziro,27.6333,93.8333,54.34,35,0,0.72,IN,1699847720
525,beloyarskiy,63.7119,66.6722,12.0,94,10,5.01,RU,1699847720
526,mineros,-17.1167,-63.2333,86.52,53,75,9.4,BO,1699847721
527,covington,39.0837,-84.5086,46.44,72,0,0.0,US,1699847701
528,tabas,33.5959,56.9244,55.62,35,54,4.61,IR,1699847721
529,ad dabbah,18.05,30.95,79.45,33,71,8.39,SD,1699847721
530,kendal,54.3268,-2.7476,48.58,96,100,5.88,GB,1699847722
531,cockburn town,21.4612,-71.1419,83.07,76,3,20.51,TC,1699847719
532,uturoa,-16.7333,-151.4333,81.57,76,67,4.29,PF,1699847722
533,teknaf,20.8624,92.3058,82.13,61,43,1.88,BD,1699847723
534,braganca,-1.0536,-46.7656,74.93,90,6,1.66,BR,1699847723
535,antioch,36.2066,36.1572,48.02,46,7,3.38,TR,1699847723
536,abou el hassan,36.4166,1.1962,58.44,67,29,4.41,DZ,1699847724
537,hami,42.8,93.45,43.5,23,43,1.21,CN,1699847724
538,cabedelo,-6.9811,-34.8339,75.87,78,27,6.55,BR,1699847724
539,cumbum,9.7333,77.3,78.53,69,95,4.12,IN,1699847725
540,kalmunai,7.4167,81.8167,78.26,89,100,8.59,LK,1699847637
541,gebeit,21.0667,36.3167,73.45,72,68,3.27,SD,1699847725
542,marsa alam,25.0757,34.8918,77.0,85,100,5.03,EG,1699847726
543,iglino,54.8324,56.4126,37.49,75,100,14.05,RU,1699847726
544,chom bueng,13.62,99.5917,84.76,72,89,8.19,TH,1699847726
545,fort mcmurray,56.7268,-111.381,29.71,93,20,4.61,CA,1699847515
546,keetmanshoop,-26.5833,18.1333,63.52,22,0,3.44,NA,1699847727
547,clinton,42.587,-82.9199,44.87,82,75,8.05,US,1699847704
548,robertsport,6.7533,-11.3686,80.26,80,100,6.6,LR,1699847728
549,luena,-11.7833,19.9167,63.27,95,99,1.72,AO,1699847728
550,stephenville,32.2207,-98.2023,55.53,86,75,0.0,US,1699847728
551,luanda,-8.8368,13.2343,77.0,83,75,6.91,AO,1699847729
552,balabac,7.9868,117.0645,86.13,67,13,10.67,PH,1699847729
553,oxford,51.7522,-1.256,51.66,97,75,11.5,GB,1699847641
554,taiynsha,53.8478,69.7639,39.33,91,100,9.42,KZ,1699847729
555,coruripe,-10.1256,-36.1756,73.35,80,2,7.83,BR,1699847730
556,sinabang,2.4803,96.3801,82.81,77,76,3.18,ID,1699847730
557,mariehamn,60.0973,19.9348,37.81,93,100,6.91,AX,1699847731
558,nolinsk,57.5596,49.9363,36.09,94,100,15.93,RU,1699847731
559,thurgoona,-36.0451,146.9919,82.65,79,3,4.0,AU,1699847731
560,smidovich,48.6,133.8167,21.47,87,11,7.38,RU,1699847732
561,rawlins,41.7911,-107.2387,26.49,46,0,0.0,US,1699847732
562,kidal,18.4411,1.4078,74.46,13,0,11.05,ML,1699847732
563,ambodifotatra,-16.9833,49.85,77.05,88,75,4.61,MG,1699847733
564,alpena,45.0617,-83.4327,44.92,71,100,8.05,US,1699847733
565,conceicao da barra,-18.5933,-39.7322,74.01,84,9,6.17,BR,1699847734
566,dali,25.7,100.1833,66.6,51,0,1.48,CN,1699847734
567,trairi,-3.2778,-39.2689,77.49,82,5,8.61,BR,1699847656
568,shumikha,55.2261,63.2961,34.05,87,87,5.93,RU,1699847735
